[
    {
        "model_name": "Kenya",
        "min_lon": 33.501,
        "max_lon": 42.283,
        "min_lat": -5.202,
        "max_lat": 6.002,
        "eval_datasets": [
            "Kenya"
        ],
        "train_datasets": [
            "geowiki_landcover_2017",
            "Kenya",
            "Mali",
            "Togo",
            "Rwanda",
            "Uganda",
            "open_buildings",
            "digitalearthafrica",
            "Ethiopia"
        ]
    },
    {
        "model_name": "Togo",
        "min_lon": -0.1501,
        "max_lon": 1.7779296875,
        "min_lat": 6.08940429687,
        "max_lat": 11.115625,
        "eval_datasets": [
            "Togo"
        ],
        "train_datasets": [
            "geowiki_landcover_2017",
            "Kenya",
            "Mali",
            "Togo",
            "Rwanda",
            "Uganda",
            "open_buildings",
            "digitalearthafrica",
            "Ethiopia"
        ]
    },
    {
        "model_name": "Rwanda",
        "min_lon": 28.841,
        "max_lon": 30.909,
        "min_lat": -2.854,
        "max_lat": -1.034,
        "eval_datasets": [
            "Rwanda"
        ],
        "train_datasets": [
            "geowiki_landcover_2017",
            "Kenya",
            "Mali",
            "Togo",
            "Rwanda",
            "Uganda",
            "open_buildings",
            "digitalearthafrica",
            "Ethiopia"
        ]
    },
    {
        "model_name": "Uganda",
        "min_lon": 29.5794661801,
        "max_lon": 35.03599,
        "min_lat": -1.44332244223,
        "max_lat": 4.24988494736,
        "eval_datasets": [
            "Uganda"
        ],
        "train_datasets": [
            "geowiki_landcover_2017",
            "Kenya",
            "Mali",
            "Togo",
            "Rwanda",
            "Uganda",
            "open_buildings",
            "digitalearthafrica",
            "Ethiopia"
        ]
    },
    {
        "model_name": "Global",
        "min_lon": -180,
        "max_lon": 180,
        "min_lat": -90,
        "max_lat": 90,
        "alternative_threshold": 0.86,
        "eval_datasets": [
            "Uganda"
        ],
        "train_datasets": [
            "geowiki_landcover_2017",
            "Kenya",
            "Mali",
            "Togo",
            "Rwanda",
            "Uganda",
            "open_buildings",
            "digitalearthafrica",
            "Ethiopia"
        ]
    },
    {
        "model_name": "Ethiopia_Tigray_2020",
        "min_lon": 36.45,
        "max_lon": 40.00,
        "min_lat": 12.25,
        "max_lat": 14.895,
        "alternative_threshold": 0.89,
        "eval_datasets": [
            "Ethiopia_Tigray_2020"
        ],
        "train_datasets": [
            "geowiki_landcover_2017",
            "Kenya",
            "Mali",
            "Togo",
            "Rwanda",
            "Uganda",
            "open_buildings",
            "digitalearthafrica",
            "Ethiopia"
        ]
    },
    {
        "model_name": "Ethiopia_Tigray_2021",
        "min_lon": 36.45,
        "max_lon": 40.00,
        "min_lat": 12.25,
        "max_lat": 14.895,
        "alternative_threshold": 0.89,
        "eval_datasets": [
            "Ethiopia_Tigray_2021"
        ],
        "train_datasets": [
            "geowiki_landcover_2017",
            "Kenya",
            "Mali",
            "Togo",
            "Rwanda",
            "Uganda",
            "open_buildings",
            "digitalearthafrica",
            "Ethiopia"
        ]
    },
    {
        "model_name": "Ethiopia_Tigray_2021_w_forecaster",
        "min_lon": 36.45,
        "max_lon": 40.00,
        "min_lat": 12.25,
        "max_lat": 14.895,
        "alternative_threshold": 0.89,
        "input_months": 5,
        "forecast": true,
        "evaluate_forecast": false,
        "eval_datasets": [
            "Ethiopia_Tigray_2021"
        ],
        "train_datasets": [
            "geowiki_landcover_2017",
            "Kenya",
            "Mali",
            "Togo",
            "Rwanda",
            "Uganda",
            "open_buildings",
            "digitalearthafrica",
            "Ethiopia"
        ]
    }
]