[
    {
        "model_name": "Kenya",
        "alternative_threshold": 0.55,
        "min_lon": 33.501,
        "max_lon": 42.283,
        "min_lat": -5.202,
        "max_lat": 6.002,
        "up_to_year": 2020,
        "eval_datasets": [
            "Kenya"
        ],
        "train_datasets": [
            "geowiki_landcover_2017",
            "Kenya",
            "Mali",
            "Togo",
            "Rwanda",
            "Uganda",
            "open_buildings",
            "digitalearthafrica_eastern",
            "Ethiopia",
            "digitalearthafrica_sahel"
        ]
    },
    {
        "model_name": "Togo",
        "alternative_threshold": 0.28,
        "min_lon": -0.1501,
        "max_lon": 1.7779296875,
        "min_lat": 6.08940429687,
        "max_lat": 11.1332,
        "up_to_year": 2020,
        "eval_datasets": [
            "Togo"
        ],
        "train_datasets": [
            "geowiki_landcover_2017",
            "Kenya",
            "Mali",
            "Togo",
            "Rwanda",
            "Uganda",
            "open_buildings",
            "digitalearthafrica_eastern",
            "Ethiopia",
            "digitalearthafrica_sahel"
        ]
    },
    {
        "model_name": "Rwanda",
        "alternative_threshold": 0.26,
        "min_lon": 28.430,
        "max_lon": 31.013,
        "min_lat": -3.035,
        "max_lat": -0.760,
        "up_to_year": 2020,
        "eval_datasets": [
            "Rwanda"
        ],
        "train_datasets": [
            "geowiki_landcover_2017",
            "Kenya",
            "Mali",
            "Togo",
            "Rwanda",
            "Uganda",
            "open_buildings",
            "digitalearthafrica_eastern",
            "Ethiopia",
            "digitalearthafrica_sahel"
        ]
    },
    {
        "model_name": "Uganda",
        "alternative_threshold": 0.75,
        "min_lon": 29.1274,
        "max_lon": 35.1746,
        "min_lat": -1.6235,
        "max_lat": 4.2963,
        "up_to_year": 2020,
        "eval_datasets": [
            "Uganda"
        ],
        "train_datasets": [
            "geowiki_landcover_2017",
            "Kenya",
            "Mali",
            "Togo",
            "Rwanda",
            "Uganda",
            "open_buildings",
            "digitalearthafrica_eastern",
            "Ethiopia",
            "digitalearthafrica_sahel"
        ]
    },
    {
        "model_name": "Global",
        "alternative_threshold": 0.85,
        "min_lon": -180,
        "max_lon": 180,
        "min_lat": -90,
        "max_lat": 90,
        "up_to_year": 2020,
        "eval_datasets": [
            "Uganda"
        ],
        "train_datasets": [
            "geowiki_landcover_2017",
            "Kenya",
            "Mali",
            "Togo",
            "Rwanda",
            "Uganda",
            "open_buildings",
            "digitalearthafrica_eastern",
            "Ethiopia",
            "digitalearthafrica_sahel"
        ]
    },
    {
        "model_name": "Ethiopia_Tigray_2020",
        "alternative_threshold": 0.54,
        "min_lon": 36.45,
        "max_lon": 40.00,
        "min_lat": 12.25,
        "max_lat": 14.910,
        "up_to_year": 2020,
        "eval_datasets": [
            "Ethiopia_Tigray_2020"
        ],
        "train_datasets": [
            "geowiki_landcover_2017",
            "Kenya",
            "Mali",
            "Togo",
            "Rwanda",
            "digitalearthafrica_eastern",
            "Ethiopia"
        ]
    },
    {
        "model_name": "Ethiopia_Tigray_2021_w_forecaster",
        "alternative_threshold": 0.48,
        "min_lon": 36.45,
        "max_lon": 40.00,
        "min_lat": 12.25,
        "max_lat": 14.910,
        "input_months": 6,
        "forecast": true,
        "evaluate_forecast": false,
        "up_to_year": 2020,
        "eval_datasets": [
            "Ethiopia_Tigray_2021"
        ],
        "train_datasets": [
            "geowiki_landcover_2017",
            "Kenya",
            "Mali",
            "Togo",
            "Rwanda",
            "digitalearthafrica_eastern",
            "Ethiopia",
            "Ethiopia_Tigray_2020"
        ]
    },
    {
        "model_name": "Ethiopia_Tigray_2021_no_forecaster",
        "alternative_threshold": 0.66,
        "min_lon": 36.45,
        "max_lon": 40.00,
        "min_lat": 12.25,
        "max_lat": 14.910,
        "input_months": 6,
        "forecast": false,
        "up_to_year": 2020,
        "eval_datasets": [
            "Ethiopia_Tigray_2021"
        ],
        "train_datasets": [
            "geowiki_landcover_2017",
            "Kenya",
            "Mali",
            "Togo",
            "Rwanda",
            "digitalearthafrica_eastern",
            "Ethiopia",
            "Ethiopia_Tigray_2020"
        ]
    },
    {
        "model_name": "Ethiopia_Bure_Jimma_2019",
        "min_lat": 7.500000,
        "max_lat": 10.811000,
        "min_lon": 35.500000,
        "max_lon": 37.200000,
        "up_to_year": 2020,
        "alternative_threshold": 0.25,
        "eval_datasets": [
            "Ethiopia_Bure_Jimma_2019"
        ],
        "train_datasets": [
            "geowiki_landcover_2017",
            "Kenya",
            "Mali",
            "Togo",
            "Rwanda",
            "digitalearthafrica_eastern",
            "Ethiopia",
            "Ethiopia_Bure_Jimma_2020"
        ]
    },
    {
        "model_name": "Ethiopia_Bure_Jimma_2020",
        "min_lat": 7.500000,
        "max_lat": 10.811000,
        "min_lon": 35.500000,
        "max_lon": 37.200000,
        "up_to_year": 2020,
        "alternative_threshold": 0.62,
        "eval_datasets": [
            "Ethiopia_Bure_Jimma_2020"
        ],
        "train_datasets": [
            "geowiki_landcover_2017",
            "Kenya",
            "Mali",
            "Togo",
            "Rwanda",
            "digitalearthafrica_eastern",
            "Ethiopia",
            "Ethiopia_Bure_Jimma_2019"
        ]
    },
    {
        "model_name": "Mali_USAID_ZOIS_lower_2019",
        "min_lat": 10.36852747,
        "max_lat": 12.583134347,
        "min_lon": -8.348553278,
        "max_lon": -4.661010149,
        "alternative_threshold": 0.21,
        "up_to_year": 2020,
        "eval_datasets": [
            "Mali_lower_CEO_2019"
        ],
        "train_datasets": [
            "geowiki_landcover_2017",
            "Kenya",
            "Mali",
            "Togo",
            "Rwanda",
            "digitalearthafrica_eastern",
            "Ethiopia",
            "Mali_upper_CEO_2019"
        ]
    },
    {
        "model_name": "Mali_USAID_ZOIS_upper_2019",
        "min_lat": 13.1527367220001,
        "max_lat": 17.134,
        "min_lon": -5.197335399999872,
        "max_lon": -1.9996060219999094,
        "up_to_year": 2020,
        "alternative_threshold": 0.03,
        "eval_datasets": [
            "Mali_upper_CEO_2019"
        ],
        "train_datasets": [
            "geowiki_landcover_2017",
            "Kenya",
            "Mali",
            "Togo",
            "Rwanda",
            "digitalearthafrica_eastern",
            "Ethiopia",
            "Mali_lower_CEO_2019"
        ]
    },
    {
        "model_name": "Mali_USAID_ZOIS_combined_2019",
        "min_lat": 10.36852747,
        "max_lat": 17.134,
        "min_lon": -8.348553278,
        "max_lon": -1.9996060219999094,
        "up_to_year": 2020,
        "alternative_threshold": 0.69,
        "eval_datasets": [
            "Mali_upper_CEO_2019",
            "Mali_lower_CEO_2019"
        ],
        "train_datasets": [
            "geowiki_landcover_2017",
            "Kenya",
            "Mali",
            "Togo",
            "Rwanda",
            "digitalearthafrica_eastern",
            "Ethiopia"
        ]
    },
    {
        "model_name": "Argentina_Buenos_Aires_2021",
        "min_lat": -41.2,
        "max_lat": -33.2,
        "min_lon": -63.5,
        "max_lon": -56.6,
        "input_months": 7,
        "alternative_threshold": 0.34,
        "eval_datasets": [
            "Argentina_Buenos_Aires"
        ],
        "train_datasets": [
            "Argentina_Buenos_Aires",
            "geowiki_landcover_2017"
        ]
    },
    {
        "model_name": "Malawi_2021",
        "min_lat": -17.135,
        "max_lat": -9.23004908,
        "min_lon": -180,
        "max_lon": 180,
        "noise_factor": 0.2,
        "alternative_threshold": 0.56,
        "eval_datasets": [
            "Malawi_CEO_2020"
        ],
        "train_datasets": [
            "Malawi_CEO_2019",
            "Malawi_FAO",
            "open_buildings",
            "digitalearthafrica_eastern"
        ]
    }
]